%time,field.header.seq,field.header.stamp,field.header.frame_id,field.centroid.x,field.centroid.y,field.centroid.z,field.direction.x,field.direction.y,field.direction.z,field.radius,field.epsilon
1608566852224341202,0,1608566852224341202,iiwa_link_0,0.692808590328,0.0226978296761,0.079749143901,0.000777901781552,0.00995271938652,-0.000581588885194,0.0,0.0
1608566852274580876,1,1608566852274580876,iiwa_link_0,0.692808562266,0.0226977537093,0.0797490614093,0.000777900950917,0.00995271941638,-0.000581589485227,0.0,0.0
1608566852324788517,2,1608566852324788517,iiwa_link_0,0.692808634357,0.0226976862767,0.0797491477815,0.000777901701018,0.00995271932283,-0.000581590082833,0.0,0.0
1608566852374967913,3,1608566852374967913,iiwa_link_0,0.69280862985,0.022697805202,0.0797491461567,0.000777900172298,0.00995271947045,-0.000581589601335,0.0,0.0
1608566852425160530,4,1608566852425160530,iiwa_link_0,0.6935112358,0.022922554181,0.079816431871,0.0007789926095,0.00995305883459,-0.000574273758403,0.0,0.0
1608566852475354635,5,1608566852475354635,iiwa_link_0,0.695505432966,0.0239613595101,0.0800180577271,0.0007877400735,0.00995423975881,-0.000540903319279,0.0,0.0
1608566852525562303,6,1608566852525562303,iiwa_link_0,0.696546088978,0.024809255841,0.0801292019204,0.000795732206018,0.00995499741964,-0.000514622804787,0.0,0.0
1608566852575723480,7,1608566852575723480,iiwa_link_0,0.696546088978,0.024809255841,0.0801292019204,0.000795732206018,0.00995499741964,-0.000514622804787,0.0,0.0
1608566852625932692,8,1608566852625932692,iiwa_link_0,0.700409287884,0.0323490259394,0.0807703332941,0.000900871471005,0.00995561175436,-0.00027244300178,0.0,0.0
1608566852676156160,9,1608566852676156160,iiwa_link_0,0.700816727805,0.0350386602983,0.0807158715576,0.000942523083479,0.00995371983695,-0.000187381014455,0.0,0.0
1608566852866004067,10,1608566852866004067,iiwa_link_0,0.687509105295,0.0358325432378,0.0559498475529,4.48879271414,12.8124821756,1.0,0.5,0.0
1608566852885623652,11,1608566852885623652,iiwa_link_0,0.68268623226,0.040321478054,0.0569013749877,32.8201396003,92.2020344929,1.0,2.09746360779,0.0974636226892
1608566853327764866,12,1608566853327764866,iiwa_link_0,0.685205972996,0.0425520337054,0.0569407553608,5.42910995652e-09,104.377870372,1.0,0.65077829361,1.44668531418
1608566853344102986,13,1608566853344102986,iiwa_link_0,0.684315099579,0.0495554316392,0.0575390096876,0.0665389580424,101.489671195,1.0,1.19680666924,0.0
1608566853473570219,14,1608566853473570219,iiwa_link_0,0.683655377262,0.050070125271,0.0572384291844,1.94681753757,9.61711863521,1.0,1.19680666924,0.0
1608566853486723718,15,1608566853486723718,iiwa_link_0,0.683514102742,0.0507731748431,0.0573241637997,20.7658698453,98.4133487005,1.0,1.12481737137,0.0
1608566853695320433,16,1608566853695320433,iiwa_link_0,0.683968470106,0.0516227121669,0.0576110793111,4.3317800565,3.61342888897,1.0,1.12481737137,0.0
1608566853710615277,17,1608566853710615277,iiwa_link_0,0.68392831952,0.0533124515969,0.0574589465471,78.8306173587,65.6214253987,1.0,0.905925273895,0.0
1608566853868556720,18,1608566853868556720,iiwa_link_0,0.68392831952,0.0533124515969,0.0574589465471,7.63829685957,16.1945252057,1.0,0.905925273895,0.0
1608566853883778081,19,1608566853883778081,iiwa_link_0,0.684026012017,0.0552111929733,0.0574627903801,41.284679214,93.0613589791,1.0,0.773994505405,0.0
1608566853955058978,20,1608566853955058978,iiwa_link_0,0.684657127742,0.0552355074978,0.0577544016562,15.5716510521,69.5800637853,1.0,0.773994505405,0.0
1608566853970263721,21,1608566853970263721,iiwa_link_0,0.684863996314,0.0552492958445,0.0577690262482,20.2937751459,96.5429690452,1.0,0.707809686661,0.0
1608566854073182156,22,1608566854073182156,iiwa_link_0,0.684863996314,0.0552492958445,0.0577690262482,19.7167040939,154.569558701,1.0,0.707809686661,0.0
1608566854087195314,23,1608566854087195314,iiwa_link_0,0.684510846307,0.0563774864798,0.0574716276775,10.8641004233,99.1699004563,1.0,0.708010852337,0.0
1608566854165164140,24,1608566854165164140,iiwa_link_0,0.684397886393,0.0574277558552,0.0574120014553,19.1880763334,115.242942446,1.0,0.708010852337,0.0
1608566854179774684,25,1608566854179774684,iiwa_link_0,0.684487291813,0.0578338878453,0.0576227119565,16.2765310518,100.358531286,1.0,0.709510684013,0.0
1608566854265708793,26,1608566854265708793,iiwa_link_0,0.684487291813,0.0578338878453,0.0576227119565,13.3855408815,73.2494414727,1.0,0.709510684013,0.0
1608566854279218160,27,1608566854279218160,iiwa_link_0,0.684494488744,0.0585599010667,0.0577916497651,20.780848501,99.9828078987,1.0,0.715164661407,0.0
1608566854387862478,28,1608566854387862478,iiwa_link_0,0.684494488744,0.0585599010667,0.0577916497651,3.0335184846,22.3711878408,1.0,0.715164661407,0.0
1608566854408440851,29,1608566854408440851,iiwa_link_0,0.684459111718,0.0600234973858,0.0578604437873,15.8600098902,99.1860889805,1.0,0.711828351021,0.0
1608566854571488277,30,1608566854571488277,iiwa_link_0,0.684459111718,0.0600234973858,0.0578604437873,0.538509535505,16.5406110461,1.0,0.711828351021,0.0
1608566854587614217,31,1608566854587614217,iiwa_link_0,0.684659466669,0.0612283167266,0.0579373772013,0.625406017113,99.6848809983,1.0,0.681606054306,0.0
1608566854962587326,32,1608566854962587326,iiwa_link_0,0.684569085753,0.0621632424349,0.0579226995826,-6.69065922063e-08,100.134479883,1.0,0.681606054306,0.0
1608566854976442627,33,1608566854976442627,iiwa_link_0,0.684817385457,0.0662978956645,0.0584200435606,3.34653256237,99.9795147736,1.0,0.713323533535,0.0
1608566855207464117,34,1608566855207464117,iiwa_link_0,0.684817385457,0.0662978956645,0.0584200435606,0.38157134164,9.78859850698,1.0,0.713323533535,0.0
1608566855226347463,35,1608566855226347463,iiwa_link_0,0.684722142758,0.0690622129462,0.0589246365591,2.68124229502,96.7314560801,1.0,0.735322415829,0.0
1608566855739236410,36,1608566855739236410,iiwa_link_0,0.684722142758,0.0690622129462,0.0589246365591,7.17241535446e-08,101.536896386,1.0,0.735322415829,0.0
1608566855757325863,37,1608566855757325863,iiwa_link_0,0.685806506395,0.0790563363076,0.0595957825304,2.20940279479,97.3488614458,1.0,0.784678280354,0.0
1608566855963500847,38,1608566855963500847,iiwa_link_0,0.685945906235,0.0791623028814,0.0597398789619,0.465428192526,8.56876972462,1.0,0.784678280354,0.0
1608566855978008045,39,1608566855978008045,iiwa_link_0,0.68593695667,0.0796285716875,0.0596669958614,5.74116271228,99.5289942962,1.0,0.811036944389,0.0
1608566856099144228,40,1608566856099144228,iiwa_link_0,0.68593695667,0.0796285716875,0.0596669958614,0.71035803417,4.22033506831,1.0,0.811036944389,0.0
1608566856116915639,41,1608566856116915639,iiwa_link_0,0.686236671098,0.0828711104331,0.0598582147933,17.7278601584,98.546757287,1.0,0.760594904423,0.0
1608566856274347685,42,1608566856274347685,iiwa_link_0,0.686236671098,0.0828711104331,0.0598582147933,2.15029291121,13.9850383502,1.0,0.760594904423,0.0
1608566856290239079,43,1608566856290239079,iiwa_link_0,0.686520092834,0.0854733061935,0.0601522014009,17.4305723507,99.9531618757,1.0,0.772697627544,0.0
1608566856432402146,44,1608566856432402146,iiwa_link_0,0.686520092834,0.0854733061935,0.0601522014009,1.30619935644,14.2297687241,1.0,0.772697627544,0.0
1608566856446336422,45,1608566856446336422,iiwa_link_0,0.68662536585,0.0869230134281,0.0603699446066,11.0229239696,99.1436589487,1.0,0.771521866322,0.0
1608566856599865123,46,1608566856599865123,iiwa_link_0,0.68662536585,0.0869230134281,0.0603699446066,1.08176044585,10.8985797465,1.0,0.771521866322,0.0
1608566856615710380,47,1608566856615710380,iiwa_link_0,0.686671993892,0.090044455288,0.0605194729713,9.60747294224,97.30912494,1.0,0.770434081554,0.0
1608566856782589720,48,1608566856782589720,iiwa_link_0,0.686548881154,0.0902706716144,0.0605645927421,0.719825602536,10.2961193153,1.0,0.770434081554,0.0
1608566856798492345,49,1608566856798492345,iiwa_link_0,0.686579273994,0.0914147906927,0.0608402960029,7.16590596169,99.623017649,1.0,0.773619413376,0.0
1608566857310693803,50,1608566857310693803,iiwa_link_0,0.686549732769,0.0919968259439,0.0608898114609,5.33467588445e-07,102.463828294,1.0,0.773619413376,0.0
1608566857329355096,51,1608566857329355096,iiwa_link_0,0.687049176624,0.100487420858,0.0612541638422,-0.315698516407,102.65537809,1.0,0.74794703722,0.0
1608566857448631841,52,1608566857448631841,iiwa_link_0,0.687049176624,0.100487420858,0.0612541638422,0.719251343745,21.2754960642,1.0,0.74794703722,0.0
1608566857463646956,53,1608566857463646956,iiwa_link_0,0.687121875558,0.100891240975,0.0613188092527,3.6439434228,100.060921919,1.0,0.74505674839,0.0
1608566857571735083,54,1608566857571735083,iiwa_link_0,0.687121875558,0.100891240975,0.0613188092527,1.55104910364,23.2983879464,1.0,0.74505674839,0.0
1608566857586524918,55,1608566857586524918,iiwa_link_0,0.687141406452,0.101231661918,0.0612530150967,8.62382624388,99.3268164695,1.0,0.742945790291,0.0
1608566857731468227,56,1608566857731468227,iiwa_link_0,0.687141406452,0.101231661918,0.0612530150967,2.36766235073,28.0348288903,1.0,0.742945790291,0.0
1608566857747449707,57,1608566857747449707,iiwa_link_0,0.687237551776,0.104204514067,0.0613320591629,6.93166823146,99.7305410758,1.0,0.743533015251,0.0
1608566857853258089,58,1608566857853258089,iiwa_link_0,0.687237551776,0.104204514067,0.0613320591629,6.17225794899,74.4385831471,1.0,0.743533015251,0.0
1608566857868322780,59,1608566857868322780,iiwa_link_0,0.687346292867,0.104942332886,0.0614008864114,9.81501669787,93.944851293,1.0,0.745230197906,0.0
1608566858020692488,60,1608566858020692488,iiwa_link_0,0.687373481557,0.105383547697,0.0614246299163,2.43671745384,31.9417917751,1.0,0.745230197906,0.0
1608566858040380699,61,1608566858040380699,iiwa_link_0,0.68762748582,0.108528775908,0.0614781495982,6.61715734837,98.886337693,1.0,0.742768228054,0.0
1608566858187945752,62,1608566858187945752,iiwa_link_0,0.68762748582,0.108528775908,0.0614781495982,1.76874996124,27.7778731151,1.0,0.742768228054,0.0
1608566858206695794,63,1608566858206695794,iiwa_link_0,0.687663335954,0.110243989842,0.061392653146,8.18487321537,100.780223014,1.0,0.740724444389,0.0
1608566858329855741,64,1608566858329855741,iiwa_link_0,0.68762229774,0.111611440276,0.0613993246584,8.69382105021,166.178298496,1.0,0.740724444389,0.0
1608566858344937973,65,1608566858344937973,iiwa_link_0,0.68772944552,0.112074638611,0.0615193741812,6.32857123715,99.5891578482,1.0,0.740040898323,0.0
1608566858509344390,66,1608566858509344390,iiwa_link_0,0.687943371841,0.113921911792,0.0615168277873,397551622.904,8947533845.28,1.0,0.740040898323,0.0
1608566858526297093,67,1608566858526297093,iiwa_link_0,0.688329017553,0.116320383573,0.0615378835529,3.03016030979,101.736939799,1.0,0.754966080189,0.0
1608566858606366867,68,1608566858606366867,iiwa_link_0,0.688329017553,0.116320383573,0.0615378835529,8.30311696036,89.8039481703,1.0,0.754966080189,0.0
1608566858623794177,69,1608566858623794177,iiwa_link_0,0.688116322642,0.117580234826,0.0614988120553,8.49174303856,98.9004712573,1.0,0.749693453312,0.0
1608566858727260457,70,1608566858727260457,iiwa_link_0,0.688116322642,0.117580234826,0.0614988120553,4.47904137,48.5303889944,1.0,0.749693453312,0.0
1608566858746476641,71,1608566858746476641,iiwa_link_0,0.688124252435,0.119983971644,0.0620025189426,11.5858102262,100.671609375,1.0,0.765032887459,0.0
1608566858874434895,72,1608566858874434895,iiwa_link_0,0.688258252554,0.120491448161,0.0619608921229,1.28062138111,23.5339671257,1.0,0.765032887459,0.0
1608566858891013237,73,1608566858891013237,iiwa_link_0,0.688928848098,0.122395814298,0.0618769050061,2.12311790324,101.646422034,1.0,0.772672533989,0.0
1608566859023770819,74,1608566859023770819,iiwa_link_0,0.688928848098,0.122395814298,0.0618769050061,1.21388986642,19.6349056822,1.0,0.772672533989,0.0
1608566859044199948,75,1608566859044199948,iiwa_link_0,0.688872315322,0.125824612037,0.0619190472777,9.48448421405,101.245928806,1.0,0.755896806717,0.0
1608566859163752363,76,1608566859163752363,iiwa_link_0,0.688872315322,0.125824612037,0.0619190472777,4.00120361845,36.3467130179,1.0,0.755896806717,0.0
1608566859183034007,77,1608566859183034007,iiwa_link_0,0.688910176754,0.127384413779,0.0620268544803,7.20917331092,100.552705477,1.0,0.748042404652,0.0
1608566859318829419,78,1608566859318829419,iiwa_link_0,0.688910176754,0.127384413779,0.0620268544803,4.01526934076,37.6096932912,1.0,0.748042404652,0.0
1608566859337594600,79,1608566859337594600,iiwa_link_0,0.689182214098,0.128104936161,0.0624345974035,6.71056962265,97.3539394565,1.0,0.745465636253,0.0
1608566859480142447,80,1608566859480142447,iiwa_link_0,0.689182214098,0.128104936161,0.0624345974035,0.431498306119,7.93089582807,1.0,0.745465636253,0.0
1608566859497236285,81,1608566859497236285,iiwa_link_0,0.689351017759,0.130115558128,0.0618208880452,5.12220779199,99.3201800661,1.0,0.729088902473,0.0
1608566859677109073,82,1608566859677109073,iiwa_link_0,0.689379806543,0.131648285166,0.061907470265,1690632449.76,18378551537.3,1.0,0.729088902473,0.0
1608566859692501843,83,1608566859692501843,iiwa_link_0,0.689929336016,0.134126825509,0.0618530580866,13.2381338517,98.5796338979,1.0,0.74125289917,0.0
1608566859874433771,84,1608566859874433771,iiwa_link_0,0.689929336016,0.134126825509,0.0618530580866,3418511341.18,31529647386.0,1.0,0.74125289917,0.0
1608566859890190472,85,1608566859890190472,iiwa_link_0,0.690139833457,0.136606158006,0.0609793388116,11.3996938955,95.1672683086,1.0,0.773542881012,0.0
1608566860085251691,86,1608566860085251691,iiwa_link_0,0.690139833457,0.136606158006,0.0609793388116,4389113666.45,46124936426.9,1.0,0.773542881012,0.0
1608566860102876681,87,1608566860102876681,iiwa_link_0,0.690592274118,0.138468987107,0.060328946904,12.6137266491,98.759689693,1.0,0.839137136936,0.0
1608566860305889778,88,1608566860305889778,iiwa_link_0,0.690592274118,0.138468987107,0.060328946904,5399500421.53,50775316988.9,1.0,0.839137136936,0.0
1608566860324617321,89,1608566860324617321,iiwa_link_0,0.691033069904,0.141371284191,0.0600650687655,11.0684746971,100.246968508,1.0,0.793749034405,0.0
1608566860522153003,90,1608566860522153003,iiwa_link_0,0.691119574036,0.141845951156,0.0599573907846,6425543903.53,38518304937.9,1.0,0.793749034405,0.0
1608566860538018377,91,1608566860538018377,iiwa_link_0,0.691359219058,0.145432262893,0.0591512124472,13.514484986,99.0924099234,1.0,0.809544682503,0.0
