%time,field.header.seq,field.header.stamp,field.header.frame_id,field.centroid.x,field.centroid.y,field.centroid.z,field.direction.x,field.direction.y,field.direction.z,field.radius,field.epsilon
1602687949380265910,2051,1602687949380265910,iiwa_link_0,0.530998808872,0.222872500739,0.0576246980123,-41.7780149017,88.7403902502,1.0,0.513920843601,0.0
1602687949578713425,2052,1602687949578713425,iiwa_link_0,0.530998808872,0.222872500739,0.0576246980123,-6.57690648719,13.9699301125,1.0,0.513920843601,0.0
1602687949594641456,2053,1602687949594641456,iiwa_link_0,0.531017041901,0.222873433267,0.0576092950566,-44.3731666074,89.4288071871,1.0,0.511386990547,0.0
1602687949732563876,2054,1602687949732563876,iiwa_link_0,0.531017041901,0.222873433267,0.0576092950566,-6.76310775317,13.5462695035,1.0,0.511386990547,0.0
1602687949745547425,2055,1602687949745547425,iiwa_link_0,0.531019947483,0.222873235356,0.0576093044783,-42.0803582747,91.6196631566,1.0,0.515019893646,0.0
1602687949891266820,2056,1602687949891266820,iiwa_link_0,0.531019947483,0.222873235356,0.0576093044783,-6.38761556405,13.4284736352,1.0,0.515019893646,0.0
1602687949907065405,2057,1602687949907065405,iiwa_link_0,0.530977831303,0.222872151695,0.0576345194493,-43.7112098805,87.9278248512,1.0,0.511282265186,0.0
1602687950072882974,2058,1602687950072882974,iiwa_link_0,0.530977831303,0.222872151695,0.0576345194493,-6.78761654786,13.9258004455,1.0,0.511282265186,0.0
1602687950082233599,2059,1602687950082233599,iiwa_link_0,0.530978122869,0.222871017642,0.057649146855,-46.1765430875,91.1833884778,1.0,0.510377466679,0.0
1602687950217738470,2060,1602687950217738470,iiwa_link_0,0.530978122869,0.222871017642,0.057649146855,-6.72151703089,12.744990845,1.0,0.510377466679,0.0
1602687950233533783,2061,1602687950233533783,iiwa_link_0,0.530979036996,0.222871649034,0.05764136203,-46.507230681,87.6587427461,1.0,0.508023321629,0.0
1602687950368184132,2062,1602687950368184132,iiwa_link_0,0.530979036996,0.222871649034,0.05764136203,-7.11330612516,13.4790179404,1.0,0.508023321629,0.0
1602687950378667937,2063,1602687950378667937,iiwa_link_0,0.531016648105,0.222870634525,0.0576440479823,-47.1145471133,88.0446594441,1.0,0.507498562336,0.0
1602687950502431783,2064,1602687950502431783,iiwa_link_0,0.531016648105,0.222870634525,0.0576440479823,-7.36010010026,13.6975961059,1.0,0.507498562336,0.0
1602687950519225205,2065,1602687950519225205,iiwa_link_0,0.530993257168,0.222869728642,0.0576611183188,-48.7284667822,87.9482600048,1.0,0.505641400814,0.0
1602687950656275835,2066,1602687950656275835,iiwa_link_0,0.530994281677,0.222872703692,0.0576249910654,-7.66480039127,13.8624006133,1.0,0.505641400814,0.0
1602687950666295814,2067,1602687950666295814,iiwa_link_0,0.531005982328,0.222871308381,0.0576373948063,-49.0419505802,88.6485930133,1.0,0.505787193775,0.0
1602687950816505885,2068,1602687950816505885,iiwa_link_0,0.531005982328,0.222871308381,0.0576373948063,-7.57288551825,13.399179204,1.0,0.505787193775,0.0
1602687950828362902,2069,1602687950828362902,iiwa_link_0,0.531026905259,0.222872288468,0.0576213917408,-50.3512476656,89.7931879737,1.0,0.505217194557,0.0
1602687951009946097,2070,1602687951009946097,iiwa_link_0,0.531026905259,0.222872288468,0.0576213917408,-7.39592556755,12.5982411336,1.0,0.505217194557,0.0
1602687951020040837,2071,1602687951020040837,iiwa_link_0,0.531004498735,0.222871486508,0.057636974727,-53.1922254156,85.9644465415,1.0,0.499429702759,0.0
1602687951162833302,2072,1602687951162833302,iiwa_link_0,0.531004498735,0.222871486508,0.057636974727,-7.64700697808,12.7659001292,1.0,0.499429702759,0.0
1602687951172520566,2073,1602687951172520566,iiwa_link_0,0.531021833133,0.222872038085,0.0576257050897,-51.982056271,85.3312886196,1.0,0.500528275967,0.0
1602687951306376629,2074,1602687951306376629,iiwa_link_0,0.531021833133,0.222872038085,0.0576257050897,-7.70567056712,13.6693452107,1.0,0.500528275967,0.0
1602687951316689974,2075,1602687951316689974,iiwa_link_0,0.531005250659,0.222871369714,0.0576381107099,-48.0357540078,83.8943932014,1.0,0.504328072071,0.0
1602687951498366410,2076,1602687951498366410,iiwa_link_0,0.531005250659,0.222871369714,0.0576381107099,-7.07974351872,11.6493981588,1.0,0.504328072071,0.0
1602687951508347236,2077,1602687951508347236,iiwa_link_0,0.530972504211,0.222871664731,0.0576434531837,-51.2162235874,85.3871765092,1.0,0.501552700996,0.0
1602687951667897936,2078,1602687951667897936,iiwa_link_0,0.530972504211,0.222871664731,0.0576434531837,-7.09160030751,11.8741029802,1.0,0.501552700996,0.0
1602687951677858955,2079,1602687951677858955,iiwa_link_0,0.531002638421,0.222872061934,0.0576312963801,-54.3053575424,87.2770929584,1.0,0.499149024487,0.0
1602687951843359900,2080,1602687951843359900,iiwa_link_0,0.531002638421,0.222872061934,0.0576312963801,-7.21549398566,11.4113058021,1.0,0.499149024487,0.0
1602687951852721859,2081,1602687951852721859,iiwa_link_0,0.531002592061,0.222869918758,0.0576569188548,-54.3962967252,86.0852289076,1.0,0.498193949461,0.0
1602687952005364186,2082,1602687952005364186,iiwa_link_0,0.531002592061,0.222869918758,0.0576569188548,-7.54613811752,11.9504963668,1.0,0.498193949461,0.0
1602687952015473443,2083,1602687952015473443,iiwa_link_0,0.530973297878,0.222872049918,0.057638911458,-52.7112433682,86.1106650277,1.0,0.500246524811,0.0
1602687952155944717,2084,1602687952155944717,iiwa_link_0,0.530973297878,0.222872049918,0.057638911458,-7.49702961044,12.5683183665,1.0,0.500246524811,0.0
1602687952167683340,2085,1602687952167683340,iiwa_link_0,0.530993678432,0.22287272392,0.0576258626753,-48.9815516363,85.7999915878,1.0,0.504556179047,0.0
1602687952290724638,2086,1602687952290724638,iiwa_link_0,0.530993678432,0.22287272392,0.0576258626753,-7.18543999841,12.8059112435,1.0,0.504556179047,0.0
1602687952302721007,2087,1602687952302721007,iiwa_link_0,0.530989354359,0.222872950533,0.0576240767315,-47.3640537479,89.0705835532,1.0,0.508505284786,0.0
1602687952443708199,2088,1602687952443708199,iiwa_link_0,0.530989354359,0.222872950533,0.0576240767315,-6.83161160797,12.1487416946,1.0,0.508505284786,0.0
1602687952453434281,2089,1602687952453434281,iiwa_link_0,0.53097612852,0.222871732437,0.0576412702359,-46.7364880898,88.0508734095,1.0,0.508582890034,0.0
1602687952611869320,2090,1602687952611869320,iiwa_link_0,0.530996593615,0.222872923206,0.0576231533434,-6.91017013228,12.4151144419,1.0,0.508582890034,0.0
1602687952624831079,2091,1602687952624831079,iiwa_link_0,0.530975463321,0.222871748134,0.0576421074316,-49.7747742692,86.285594618,1.0,0.503815531731,0.0
1602687952752574867,2092,1602687952752574867,iiwa_link_0,0.530975463321,0.222871748134,0.0576421074316,-7.05506933938,12.6217684021,1.0,0.503815531731,0.0
1602687952766075806,2093,1602687952766075806,iiwa_link_0,0.530974553337,0.222871547836,0.0576442419868,-45.7269939416,90.3757950312,1.0,0.510762751102,0.0
1602687952946138148,2094,1602687952946138148,iiwa_link_0,0.530974553337,0.222871547836,0.0576442419868,-6.83411092406,14.6121546143,1.0,0.510762751102,0.0
1602687952956645013,2095,1602687952956645013,iiwa_link_0,0.530993600111,0.222872812823,0.0576242255092,-43.3230968308,89.8229372901,1.0,0.513041555882,0.0
1602687953092247441,2096,1602687953092247441,iiwa_link_0,0.530993600111,0.222872812823,0.0576242255092,-6.72446795814,13.9213576234,1.0,0.513041555882,0.0
1602687953102724779,2097,1602687953102724779,iiwa_link_0,0.531005347409,0.222871707041,0.0576351400879,-42.4841692653,92.3527335507,1.0,0.515248298645,0.0
1602687953233988980,2098,1602687953233988980,iiwa_link_0,0.531005347409,0.222871707041,0.0576351400879,-6.54317310433,13.420640508,1.0,0.515248298645,0.0
1602687953245488408,2099,1602687953245488408,iiwa_link_0,0.530976001499,0.22287166719,0.0576435882164,-44.2723462464,88.1157178965,1.0,0.511081039906,0.0
1602687953384311391,2100,1602687953384311391,iiwa_link_0,0.530976001499,0.22287166719,0.0576435882164,-6.8678463331,12.9839054521,1.0,0.511081039906,0.0
1602687953395906762,2101,1602687953395906762,iiwa_link_0,0.530975955783,0.222871694967,0.0576427371503,-50.4900907907,89.7093746436,1.0,0.505013346672,0.0
1602687953566868614,2102,1602687953566868614,iiwa_link_0,0.530975955783,0.222871694967,0.0576427371503,-7.28033444044,12.4334121835,1.0,0.505013346672,0.0
1602687953577922952,2103,1602687953577922952,iiwa_link_0,0.530977329294,0.222871537275,0.0576442907411,-51.4359066697,88.2668363014,1.0,0.503118753433,0.0
1602687953749713320,2104,1602687953749713320,iiwa_link_0,0.530975961859,0.222871788135,0.0576427440403,-7.76347826375,14.6527620643,1.0,0.503118753433,0.0
1602687953760612451,2105,1602687953760612451,iiwa_link_0,0.530972505079,0.22287178177,0.0576434151713,-45.4603994735,87.9739562154,1.0,0.50965577364,0.0