%time,field.header.seq,field.header.stamp,field.header.frame_id,field.centroid.x,field.centroid.y,field.centroid.z,field.direction.x,field.direction.y,field.direction.z,field.radius,field.epsilon
1602690345180901549,0,1602690345180901549,iiwa_link_0,0.52882297493,0.108786466958,0.0867786380001,0.178353637745,0.983912031119,0.0103486677062,0.0,0.0
1602690345231175396,1,1602690345231175396,iiwa_link_0,0.52885225961,0.108775876662,0.086792814651,0.178315217874,0.983918836473,0.0103637014498,0.0,0.0
1602690345281491344,2,1602690345281491344,iiwa_link_0,0.528858766505,0.108784458499,0.0868023102623,0.1782820845,0.983924622097,0.0103844295758,0.0,0.0
1602690345331784384,3,1602690345331784384,iiwa_link_0,0.528867780633,0.109035104009,0.0867720693654,0.177916125784,0.983988263088,0.0106278074053,0.0,0.0
1602690345382077762,4,1602690345382077762,iiwa_link_0,0.529113819189,0.109613053672,0.0866384281329,0.176598405824,0.984224422877,0.0107372469677,0.0,0.0
1602690345432355197,5,1602690345432355197,iiwa_link_0,0.529196354606,0.110086765217,0.0865556394744,0.17653110705,0.984237796522,0.0106173509446,0.0,0.0
1602690345482668850,6,1602690345482668850,iiwa_link_0,0.529382126406,0.110580698103,0.0865089589842,0.176803969488,0.98419054813,0.0104556847911,0.0,0.0
1602690345533255751,7,1602690345533255751,iiwa_link_0,0.530038022819,0.112427625446,0.0865427806888,0.177283223287,0.984112018608,0.00970533731529,0.0,0.0
1602690345583533396,8,1602690345583533396,iiwa_link_0,0.530281808026,0.113016783389,0.0865373224216,0.178370155362,0.983920381941,0.00920704496087,0.0,0.0
1602690345633845012,9,1602690345633845012,iiwa_link_0,0.530993570284,0.114944103502,0.086562586973,0.183811012859,0.982928783442,0.00803232427406,0.0,0.0
1602690345684130859,10,1602690345684130859,iiwa_link_0,0.531303256125,0.115864678601,0.0865927241575,0.185833029121,0.982549395972,0.00792273704193,0.0,0.0
1602690345734393262,11,1602690345734393262,iiwa_link_0,0.531752050871,0.117449643621,0.0866545581373,0.188018296516,0.982132584567,0.00804403548902,0.0,0.0
1602690345784684882,12,1602690345784684882,iiwa_link_0,0.532845986215,0.12042798724,0.0867124891129,0.18795117599,0.982145491868,0.00803668133559,0.0,0.0
1602690346344910451,13,1602690346344910451,iiwa_link_0,0.529167390189,0.122667778583,0.0570874040896,-2.07539052226e-06,18.6611542836,1.0,0.5,0.0
1602690346362564517,14,1602690346362564517,iiwa_link_0,0.528713995364,0.13052117873,0.0581060039803,-0.243942689731,97.8263639115,1.0,0.901441454887,0.0
1602690346528590824,15,1602690346528590824,iiwa_link_0,0.528713995364,0.13052117873,0.0581060039803,1.0439709546,9.47335489596,1.0,0.901441454887,0.0
1602690346548713107,16,1602690346548713107,iiwa_link_0,0.52821098817,0.130553433347,0.0584519630532,11.0203036318,100.887934906,1.0,0.792765796185,0.0
1602690347056333414,17,1602690347056333414,iiwa_link_0,0.52821098817,0.130553433347,0.0584519630532,1.63660174372e-06,99.4900519264,1.0,0.792765796185,0.0
1602690347077055223,18,1602690347077055223,iiwa_link_0,0.525291744164,0.137988346601,0.0567567480201,0.925065732151,100.401398884,1.0,1.73093783855,0.0
1602690347488500924,19,1602690347488500924,iiwa_link_0,0.525222026346,0.137896445859,0.0568387481199,8.85434158986e-09,101.128005538,1.0,1.73093783855,0.0
1602690347503240823,20,1602690347503240823,iiwa_link_0,0.526300574428,0.141829861328,0.0572227705431,2.04192546739,101.56681643,1.0,1.37620007992,0.0
1602690348013769819,21,1602690348013769819,iiwa_link_0,0.526300574428,0.141829861328,0.0572227705431,1.13399369252e-07,98.9315751089,1.0,1.37620007992,0.0
1602690348032039196,22,1602690348032039196,iiwa_link_0,0.527964069972,0.148704805382,0.0577388130496,-1.37430955248,102.616841911,1.0,0.770210564137,0.0
1602690348474927297,23,1602690348474927297,iiwa_link_0,0.528251562723,0.149085113366,0.0577418322072,-9.52472089051e-09,94.749034967,1.0,0.770210564137,0.0
1602690348488512340,24,1602690348488512340,iiwa_link_0,0.529243148108,0.1548351868,0.05832991196,-1.5454790844,98.9568687281,1.0,0.787152647972,0.0
1602690348997205395,25,1602690348997205395,iiwa_link_0,0.529243148108,0.1548351868,0.05832991196,-5.73382511612e-09,100.385424361,1.0,0.787152647972,0.0
1602690349017536650,26,1602690349017536650,iiwa_link_0,0.529443950274,0.161670305851,0.0583782276816,-1.78924994452,99.9736670368,1.0,0.630555450916,0.0
1602690349492012244,27,1602690349492012244,iiwa_link_0,0.529443950274,0.161670305851,0.0583782276816,-4.18003534344e-11,98.6696798104,1.0,0.630555450916,0.0
1602690349504136476,28,1602690349504136476,iiwa_link_0,0.529081619269,0.169193342798,0.0580396411588,-0.147476740228,101.716491728,1.0,0.590829849243,0.0
1602690349940383993,29,1602690349940383993,iiwa_link_0,0.528782406024,0.169195053035,0.058070012335,4.37328686621e-09,98.5094074648,1.0,0.590829849243,0.0
1602690349952829670,30,1602690349952829670,iiwa_link_0,0.52872328467,0.169839014834,0.0582836474465,2.8046140432,101.611801019,1.0,0.5862210989,0.0
1602690350462761788,31,1602690350462761788,iiwa_link_0,0.528552844986,0.173883584034,0.0581700023734,2.8983312856e-07,101.350425895,1.0,0.5862210989,0.0
1602690350480235848,32,1602690350480235848,iiwa_link_0,0.528984718495,0.177184785339,0.0582199704808,2.42304663483,100.092961011,1.0,0.586661577225,0.0
1602690350969746728,33,1602690350969746728,iiwa_link_0,0.528861024627,0.177174803104,0.0582062063722,7.81777018531e-09,102.315301022,1.0,0.586661577225,0.0
1602690350980875497,34,1602690350980875497,iiwa_link_0,0.529056857166,0.184479836732,0.0579420243428,-2.62855094937,99.7378361995,1.0,0.575860023499,0.0
1602690351462649291,35,1602690351462649291,iiwa_link_0,0.529056857166,0.184479836732,0.0579420243428,-3.14514287913e-09,100.257011291,1.0,0.575860023499,0.0
1602690351482288246,36,1602690351482288246,iiwa_link_0,0.528876939225,0.190339899255,0.0580826924276,3.34653262605,99.9795147736,1.0,0.574436783791,0.0
1602690351990432468,37,1602690351990432468,iiwa_link_0,0.528876939225,0.190339899255,0.0580826924276,2.30240153064e-06,99.3985219899,1.0,0.574436783791,0.0
1602690352003746584,38,1602690352003746584,iiwa_link_0,0.529009318787,0.195389516686,0.0576727237365,-1.21391733277,96.8073469299,1.0,0.576867759228,0.0
1602690352198243148,39,1602690352198243148,iiwa_link_0,0.529009318787,0.195389516686,0.0576727237365,-236432083.482,29994312344.8,1.0,0.576867759228,0.0
1602690352214379800,40,1602690352214379800,iiwa_link_0,0.529366570409,0.197074614706,0.0575655626846,1.42117082281,97.3457548499,1.0,0.572709858418,0.0
1602690352532602130,41,1602690352532602130,iiwa_link_0,0.529366570409,0.197074614706,0.0575655626846,-2.71580774462e-08,103.132590973,1.0,0.572709858418,0.0
1602690352543751125,42,1602690352543751125,iiwa_link_0,0.529645678346,0.201211612258,0.0573085519589,0.317477486051,99.6761914729,1.0,0.577484071255,0.0
1602690352735791097,43,1602690352735791097,iiwa_link_0,0.529645678346,0.201211612258,0.0573085519589,1762435214.69,24381781210.1,1.0,0.577484071255,0.0
1602690352748444487,44,1602690352748444487,iiwa_link_0,0.529758140515,0.202872749086,0.0572233420617,8.34559345727,99.7114693488,1.0,0.573244690895,0.0
1602690352945364671,45,1602690352945364671,iiwa_link_0,0.529758140515,0.202872749086,0.0572233420617,1627256551.38,24233351675.6,1.0,0.573244690895,0.0
1602690352962100528,46,1602690352962100528,iiwa_link_0,0.529817003968,0.206271531658,0.0568735154592,8.93335233069,100.889970309,1.0,0.575800657272,0.0
1602690353145738701,47,1602690353145738701,iiwa_link_0,0.529817003968,0.206271531658,0.0568735154592,1811147991.68,29355820313.3,1.0,0.575800657272,0.0
1602690353158610131,48,1602690353158610131,iiwa_link_0,0.529989348644,0.20766015251,0.0567496941028,8.03994019492,99.372536243,1.0,0.577787399292,0.0
1602690353343171313,49,1602690353343171313,iiwa_link_0,0.529989348644,0.20766015251,0.0567496941028,1955382339.21,29240486029.8,1.0,0.577787399292,0.0
1602690353369167601,50,1602690353369167601,iiwa_link_0,0.53018329897,0.211213494317,0.0566680652423,6.40264782151,97.5752636021,1.0,0.561076581478,0.0
1602690353548278671,51,1602690353548278671,iiwa_link_0,0.53018329897,0.211213494317,0.0566680652423,1501902298.51,28101609565.0,1.0,0.561076581478,0.0
1602690353560619551,52,1602690353560619551,iiwa_link_0,0.530307289532,0.213153883034,0.0563545051962,5.52862220449,99.7239968591,1.0,0.557411730289,0.0
1602690353742286142,53,1602690353742286142,iiwa_link_0,0.530307289532,0.213153883034,0.0563545051962,1648053239.68,25074157758.4,1.0,0.557411730289,0.0
1602690353754227885,54,1602690353754227885,iiwa_link_0,0.530511176586,0.217166507799,0.0554995674727,6.24286577648,102.440072445,1.0,0.601100206375,0.0
1602690353929709329,55,1602690353929709329,iiwa_link_0,0.530511176586,0.217166507799,0.0554995674727,2081665554.01,34856126537.8,1.0,0.601100206375,0.0
1602690353942213157,56,1602690353942213157,iiwa_link_0,0.530235437737,0.217744021291,0.055233707972,6.22676105958,99.9401589888,1.0,0.660513043404,0.0
1602690354118008323,57,1602690354118008323,iiwa_link_0,0.530235437737,0.217744021291,0.055233707972,1621866338.57,38474456284.3,1.0,0.660513043404,0.0
1602690354128895501,58,1602690354128895501,iiwa_link_0,0.530726218727,0.222364244537,0.0548274635289,6.19290255528,99.458951084,1.0,0.671166241169,0.0
1602690354306349883,59,1602690354306349883,iiwa_link_0,0.530726218727,0.222364244537,0.0548274635289,2464282054.14,49748460316.1,1.0,0.671166241169,0.0
1602690354321061587,60,1602690354321061587,iiwa_link_0,0.53056680507,0.223244497387,0.0539533311667,3.46361297665,99.9628114888,1.0,0.7045134902,0.0
